{"type":"FeatureCollection","features":[{"type":"Feature","properties":{"marker-color":"#800080","marker-size":"medium","marker-symbol":"","name":"Parents home","city":"Gdansk","street":"Orlowska","country":"Poland","type":"house"},"geometry":{"type":"Point","coordinates":[18.583931922912598,54.42494741200184]}},{"type":"Feature","properties":{"marker-color":"#ff8000","marker-size":"medium","marker-symbol":"","name":"My home","city":"Gdansk","street":"W. Czerminskiego","country":"Poland","type":"house"},"geometry":{"type":"Point","coordinates":[18.55594575405121,54.32375239656258]}},{"type":"Feature","properties":{"marker-color":"#00ff40","marker-size":"medium","marker-symbol":"","name":"S.Moniuszko Academy of Music","city":"Gdansk","street":"Lakowa","country":"Poland","type":"University"},"geometry":{"type":"Point","coordinates":[18.6627995967865,54.34490066741282]}},{"type":"Feature","properties":{"marker-color":"#004080","marker-size":"medium","marker-symbol":"","name":"University of Gdansk","city":"Gdansk","street":"W. Stwosza","country":"Poland","type":"University"},"geometry":{"type":"Point","coordinates":[18.573589324951172,54.395838261112196]}}]}